[
  { "name": "Madrid", "longitude": -3.70379, "latitude": 40.416775 },
  { "name": "Alcalá de Henares", "longitude": -3.363541, "latitude": 40.481979 },
  { "name": "Getafe", "longitude": -3.734, "latitude": 40.3083 },
  { "name": "Fuenlabrada", "longitude": -3.794107, "latitude": 40.290206 },
  { "name": "Barcelona", "longitude": 2.173404, "latitude": 41.385064 },
  { "name": "Hospitalet de Llobregat", "longitude": 2.100283, "latitude": 41.36619 },
  { "name": "Badalona", "longitude": 2.245032, "latitude": 41.446987 },
  { "name": "Terrassa", "longitude": 2.008874, "latitude": 41.563211 },
  { "name": "Sabadell", "longitude": 2.109375, "latitude": 41.543295 },
  { "name": "Valencia", "longitude": -0.376288, "latitude": 39.469907 },
  { "name": "Gandía", "longitude": -0.182676, "latitude": 38.968246 },
  { "name": "Torrent", "longitude": -0.46677, "latitude": 39.437004 },
  { "name": "Paterna", "longitude": -0.436844, "latitude": 39.503623 },
  { "name": "Sevilla", "longitude": -5.984459, "latitude": 37.389092 },
  { "name": "Dos Hermanas", "longitude": -5.924996, "latitude": 37.284844 },
  { "name": "Utrera", "longitude": -5.780819, "latitude": 37.180954 },
  { "name": "Camas", "longitude": -6.037013, "latitude": 37.404645 },
  { "name": "Zaragoza", "longitude": -0.887710, "latitude": 41.649693 },
  { "name": "Calatayud", "longitude": -1.64323, "latitude": 41.353187 },
  { "name": "Ejea de los Caballeros", "longitude": -1.138137, "latitude": 42.127788 },
  { "name": "Málaga", "longitude": -4.421398, "latitude": 36.721274 },
  { "name": "Marbella", "longitude": -4.882447, "latitude": 36.510071 },
  { "name": "Ronda", "longitude": -5.165026, "latitude": 36.742315 },
  { "name": "Torremolinos", "longitude": -4.498284, "latitude": 36.625451 },
  { "name": "Murcia", "longitude": -1.130654, "latitude": 37.992240 },
  { "name": "Cartagena", "longitude": -0.986231, "latitude": 37.625684 },
  { "name": "Lorca", "longitude": -1.694017, "latitude": 37.683393 },
  { "name": "Palma de Mallorca", "longitude": 2.650160, "latitude": 39.569600 },
  { "name": "Inca", "longitude": 2.904888, "latitude": 39.720724 },
  { "name": "Manacor", "longitude": 3.209546, "latitude": 39.569434 },
  { "name": "Badajoz", "longitude": -6.970653, "latitude": 38.878545 },
  { "name": "Mérida", "longitude": -6.341901, "latitude": 38.917043 },
  { "name": "Cáceres", "longitude": -6.372246, "latitude": 39.476343 },
  { "name": "Plasencia", "longitude": -6.088932, "latitude": 40.031489 },
  { "name": "Bilbao", "longitude": -2.935013, "latitude": 43.263012 },
  { "name": "Barakaldo", "longitude": -2.98849, "latitude": 43.295145 },
  { "name": "Getxo", "longitude": -3.011005, "latitude": 43.350298 },
  { "name": "Santander", "longitude": -3.807933, "latitude": 43.462305 },
  { "name": "Torrelavega", "longitude": -4.058692, "latitude": 43.349574 },
  { "name": "Logroño", "longitude": -2.448734, "latitude": 42.462719 },
  { "name": "Oviedo", "longitude": -5.843677, "latitude": 43.361914 },
  { "name": "Gijón", "longitude": -5.66354, "latitude": 43.532202 },
  { "name": "Avilés", "longitude": -5.924827, "latitude": 43.55657 },
  { "name": "Alicante", "longitude": -0.48162, "latitude": 38.34517 },
  { "name": "Elche", "longitude": -0.70107, "latitude": 38.26892 },
  { "name": "Torrevieja", "longitude": -0.68177, "latitude": 37.98005 },
  { "name": "Castellón de la Plana", "longitude": -0.03703, "latitude": 39.98636 },
  { "name": "Valladolid", "longitude": -4.72856, "latitude": 41.65225 },
  { "name": "Salamanca", "longitude": -5.66354, "latitude": 40.96394 },
  { "name": "León", "longitude": -5.57032, "latitude": 42.59873 },
  { "name": "Burgos", "longitude": -3.70379, "latitude": 42.34399 },
  { "name": "A Coruña", "longitude": -8.40994, "latitude": 43.36234 },
  { "name": "Santiago de Compostela", "longitude": -8.54484, "latitude": 42.87821 },
  { "name": "Vigo", "longitude": -8.72772, "latitude": 42.2406 },
  { "name": "Lugo", "longitude": -7.556, "latitude": 43.00842 },
  { "nombre": "Ourense", "longitude": -7.86723, "latitude": 42.34245 }
]
